[
  {
    "key": "dfw",
    "latitude": 32.77870178222656,
    "longitude": -96.82170104980469,
    "name": "Dallas"
  },
  {
    "key": "ash",
    "latitude": 39.043611,
    "longitude": -77.4875,
    "name": "Ashburn"
  },
  {
    "key": "yyz",
    "latitude": 43.6532,
    "longitude": -79.3832,
    "name": "Toronto"
  },
  {
    "key": "paris",
    "latitude": 48.93330001831055,
    "longitude": 2.3666999340057373,
    "name": "Paris"
  },
  {
    "key": "portland",
    "latitude": 45.77880096435547,
    "longitude": -119.52899932861328,
    "name": "Portland"
  },
  {
    "key": "south-carolina",
    "latitude": 33.0723991394043,
    "longitude": -80.03890228271484,
    "name": "South Carolina"
  },
  {
    "key": "charleroi",
    "latitude": 50.411399841308594,
    "longitude": 4.444479942321777,
    "name": "Charleroi"
  },
  {
    "key": "chi",
    "latitude": 41.86320114135742,
    "longitude": -87.61979675292969,
    "name": "Chicago"
  },
  {
    "key": "lon",
    "latitude": 51.514400482177734,
    "longitude": -0.0940999984741211,
    "name": "London"
  },
  {
    "key": "nyc",
    "latitude": 40.714298248291016,
    "longitude": -74.00599670410156,
    "name": "New York"
  },
  {
    "key": "sea",
    "latitude": 47.614498138427734,
    "longitude": -122.3479995727539,
    "name": "Seattle"
  },
  {
    "key": "sydney",
    "latitude": -33.86149978637695,
    "longitude": 151.20599365234375,
    "name": "Sydney"
  },
  {
    "key": "tokyo",
    "latitude": 35.68450164794922,
    "longitude": 139.75599670410156,
    "name": "Tokyo"
  },
  {
    "key": "ams",
    "latitude": 52.349998474121094,
    "longitude": 4.9166998863220215,
    "name": "Amsterdam"
  },
  {
    "key": "atlanta",
    "latitude": 33.749000549316406,
    "longitude": -84.38800048828125,
    "name": "Atlanta"
  },
  {
    "key": "san-francisco",
    "latitude": 37.774898529052734,
    "longitude": -122.41899871826172,
    "name": "San Francisco"
  },
  {
    "key": "silicon-valley",
    "latitude": 37.33380126953125,
    "longitude": -121.89199829101562,
    "name": "Silicon Valley"
  },
  {
    "key": "sin",
    "latitude": 1.2930999994277954,
    "longitude": 103.85600280761719,
    "name": "Singapore"
  },
  {
    "key": "mia",
    "latitude": 25.812400817871094,
    "longitude": -80.24009704589844,
    "name": "Miami"
  },
  {
    "key": "omaha",
    "latitude": 41.25239944458008,
    "longitude": -95.99800109863281,
    "name": "Omaha"
  },
  {
    "key": "pao",
    "latitude": -23.573299407958984,
    "longitude": -46.641700744628906,
    "name": "Sao Paulo"
  },
  {
    "key": "taipei",
    "latitude": 25.105499267578125,
    "longitude": 121.59700012207031,
    "name": "Taipei"
  },
  {
    "key": "fra",
    "latitude": 50.11669921875,
    "longitude": 8.683300018310547,
    "name": "Frankfurt"
  },
  {
    "key": "lax",
    "latitude": 34.06740188598633,
    "longitude": -118.24199676513672,
    "name": "Los Angeles"
  }
]
